{"type":"FeatureCollection","features":[
{"type":"Feature","geometry":{"type":"Point","coordinates":[151.80,-34.05]},"properties":{"id":"browns_mountain_demo","name":"Browns Mountain area demo","area":"Sydney offshore","poi_type":"seamount","depth_class":"very_deep","notes":"Approximate demo point for offshore structure context, not a verified mark.","demo_only":true}},
{"type":"Feature","geometry":{"type":"Point","coordinates":[151.65,-33.25]},"properties":{"id":"shelf_edge_north","name":"Sydney shelf edge north demo","area":"Broken Bay offshore","poi_type":"shelf_break","depth_class":"shelf_break","notes":"Synthetic shelf-edge reference.","demo_only":true}},
{"type":"Feature","geometry":{"type":"Point","coordinates":[151.72,-33.80]},"properties":{"id":"shelf_edge_central","name":"Sydney shelf edge central demo","area":"Sydney offshore","poi_type":"shelf_break","depth_class":"shelf_break","notes":"Synthetic shelf-edge reference.","demo_only":true}},
{"type":"Feature","geometry":{"type":"Point","coordinates":[151.75,-34.25]},"properties":{"id":"shelf_edge_south","name":"Sydney shelf edge south demo","area":"Port Hacking offshore","poi_type":"shelf_break","depth_class":"shelf_break","notes":"Synthetic shelf-edge reference.","demo_only":true}},
{"type":"Feature","geometry":{"type":"Point","coordinates":[151.45,-33.45]},"properties":{"id":"broken_bay_offshore","name":"Broken Bay offshore demo","area":"Broken Bay offshore","poi_type":"offshore_bank","depth_class":"shelf","notes":"Approximate demo offshore context.","demo_only":true}},
{"type":"Feature","geometry":{"type":"Point","coordinates":[151.42,-34.05]},"properties":{"id":"botany_bay_offshore","name":"Botany Bay offshore demo","area":"Botany Bay offshore","poi_type":"harbour_departure","depth_class":"shelf","notes":"Departure context only, not navigation advice.","demo_only":true}},
{"type":"Feature","geometry":{"type":"Point","coordinates":[151.40,-34.20]},"properties":{"id":"port_hacking_offshore","name":"Port Hacking offshore demo","area":"Port Hacking offshore","poi_type":"harbour_departure","depth_class":"shelf","notes":"Departure context only, not navigation advice.","demo_only":true}},
{"type":"Feature","geometry":{"type":"Point","coordinates":[151.15,-35.10]},"properties":{"id":"jervis_bay_context","name":"Jervis Bay offshore context demo","area":"Jervis Bay offshore context","poi_type":"current_edge","depth_class":"shelf","notes":"Southern context point for the demo region.","demo_only":true}},
{"type":"Feature","geometry":{"type":"Point","coordinates":[151.58,-33.35]},"properties":{"id":"fad_north_demo","name":"FAD-style north Sydney demo","area":"Broken Bay offshore","poi_type":"fad_demo","depth_class":"shelf","notes":"Synthetic FAD-style reference only.","demo_only":true}},
{"type":"Feature","geometry":{"type":"Point","coordinates":[151.55,-33.85]},"properties":{"id":"fad_central_demo","name":"FAD-style central Sydney demo","area":"Sydney offshore","poi_type":"fad_demo","depth_class":"shelf","notes":"Synthetic FAD-style reference only.","demo_only":true}},
{"type":"Feature","geometry":{"type":"Point","coordinates":[151.55,-34.35]},"properties":{"id":"fad_south_demo","name":"FAD-style south Sydney demo","area":"Port Hacking offshore","poi_type":"fad_demo","depth_class":"shelf","notes":"Synthetic FAD-style reference only.","demo_only":true}},
{"type":"Feature","geometry":{"type":"Point","coordinates":[151.95,-33.60]},"properties":{"id":"canyon_north_demo","name":"Northern canyon edge demo","area":"Sydney offshore north","poi_type":"canyon","depth_class":"deep","notes":"Approximate canyon-edge context.","demo_only":true}},
{"type":"Feature","geometry":{"type":"Point","coordinates":[152.05,-34.15]},"properties":{"id":"canyon_south_demo","name":"Southern canyon edge demo","area":"Sydney offshore south","poi_type":"canyon","depth_class":"deep","notes":"Approximate canyon-edge context.","demo_only":true}},
{"type":"Feature","geometry":{"type":"Point","coordinates":[152.45,-33.95]},"properties":{"id":"offshore_ridge_demo","name":"Offshore ridge demo","area":"East of Sydney","poi_type":"seamount","depth_class":"very_deep","notes":"Synthetic offshore ridge/seamount proxy.","demo_only":true}},
{"type":"Feature","geometry":{"type":"Point","coordinates":[151.25,-35.45]},"properties":{"id":"jervis_shelf_demo","name":"Jervis shelf edge context demo","area":"Jervis Bay offshore context","poi_type":"shelf_break","depth_class":"shelf_break","notes":"Synthetic southern shelf-edge context.","demo_only":true}},
{"type":"Feature","geometry":{"type":"Point","coordinates":[151.95,-32.80]},"properties":{"id":"northern_current_edge_demo","name":"Northern current edge demo","area":"NSW north context","poi_type":"current_edge","depth_class":"deep","notes":"Synthetic EAC/current-edge context.","demo_only":true}}
]}
